[
  {
    "id": 1,
    "name": "Polideportivo Sede Norte",
    "description": "Campo de Futbol",
    "address": "Francisco de Paula Camino 220",
    "latitude": -12.1208,
    "longitude": -77.0321,
    "anticipation": 0
  },
  {
    "id": 2,
    "name": "Polideportivo Sede Miraflores",
    "description": "Campo de Futbol",
    "address": "Calle Alcanfores 298",
    "latitude": -12.1225,
    "longitude": -77.0278,
    "anticipation": 0
  },
  {
    "id": 3,
    "name": "Complejo Deportivo \"Chino\" Vasquez",
    "description": "Campo de Futbol",
    "address": "Malecón de la Marina 9, Miraflores 15074",
    "latitude": -12.1138,
    "longitude": -77.0493,
    "anticipation": 0
  },
  {
    "id": 4,
    "name": "Futbol En Lima SAC - Campo San Jorge",
    "description": "Campo de Futbol",
    "address": "Genaro Castro Iglesias 360, Miraflores 15048",
    "latitude": -12.1241,
    "longitude": -77.0136,
    "anticipation": 0
  },
  {
    "id": 5,
    "name": "CANCHA LA 10",
    "description": "Campo de Futbol",
    "address": "Jr Doña Delmira 228, Santiago de Surco 15048",
    "latitude": -12.142,
    "longitude": -77.0054,
    "anticipation": 0
  },
  {
    "id": 6,
    "name": "Cancha La Floresta",
    "description": "Campo de Futbol",
    "address": "Santiago de Surco 15049",
    "latitude": -12.1374,
    "longitude": -77.0139,
    "anticipation": 0
  },
  {
    "id": 7,
    "name": "Cancha de grass Surco",
    "description": "Campo de Futbol",
    "address": "Santiago de Surco 15048",
    "latitude": -12.1332,
    "longitude": -77.0154,
    "anticipation": 0
  },
  {
    "id": 8,
    "name": "Cancha De Futbol Surco",
    "description": "Campo de Futbol",
    "address": "Av Paseo de la Republica, Santiago de Surco 15048",
    "latitude": -12.1421,
    "longitude": -77.003,
    "anticipation": 0
  },
  {
    "id": 9,
    "name": "Fútbol Plaza",
    "description": "Campo de Futbol",
    "address": "Av. La República 110, Santiago de Surco 15023",
    "latitude": -12.0992,
    "longitude": -76.9762,
    "anticipation": 0
  },
  {
    "id": 10,
    "name": "Cancha de Fútbol 6",
    "description": "Campo de Futbol",
    "address": "Jirón Rio Piura 481, Cercado de Lima 15021",
    "latitude": -12.1225,
    "longitude": -77.0278,
    "anticipation": 0
  },
  {
    "id": 11,
    "name": "Cancha de Fulbito El Fanático Fútbol Club",
    "description": "Campo de Futbol",
    "address": "Avenida Uruguay 191, Cercado de Lima 15001",
    "latitude": -12.1225,
    "longitude": -77.0278,
    "anticipation": 0
  },
  {
    "id": 12,
    "name": "Cancha de Sosa Pelaez",
    "description": "Campo de Futbol",
    "address": "Belisario Sosa Pelaez, Cercado de Lima 15083",
    "latitude": -12.1225,
    "longitude": -77.0278,
    "anticipation": 0
  },
  {
    "id": 13,
    "name": "Canchita de Futbol La Luz ",
    "description": "Campo de Futbol",
    "address": "Jr.Saturno 1080, Cercado de Lima 15088",
    "latitude": -12.1225,
    "longitude": -77.0278,
    "anticipation": 0
  },
  {
    "id": 14,
    "name": "Campo de Fútbol Parque Castilla ",
    "description": "Campo de Futbol",
    "address": "Parque Castilla, Joaquin Bernal, Lince 15073",
    "latitude": -12.0881,
    "longitude": -77.0415,
    "anticipation": 0
  },
  {
    "id": 15,
    "name": "Apugol",
    "description": "Campo de Futbol",
    "address": "Calle Risso 418, Lince 15046",
    "latitude": -12.0855,
    "longitude": -77.0322,
    "anticipation": 0
  },
  {
    "id": 16,
    "name": "Campo de Grass Artificial",
    "description": "Campo de Futbol",
    "address": "Parque Castilla, Av. César Vallejo, Lince 15073",
    "latitude": -12.0881,
    "longitude": -77.0417,
    "anticipation": 0
  },
  {
    "id": 17,
    "name": "Capoeira Sul De Bahia",
    "description": "Campo de Futbol",
    "address": "Av. Francisco Lazo 2040, Lince 15046",
    "latitude": -12.0844,
    "longitude": -77.0303,
    "anticipation": 0
  },
  {
    "id": 18,
    "name": "Complejo Polideportivo Mariscal Ramón Castilla",
    "description": "Campo de Futbol",
    "address": "Lince 15073",
    "latitude": -12.0882,
    "longitude": -77.0415,
    "anticipation": 0
  },
  {
    "id": 19,
    "name": "Cancha La 10 (Principal)",
    "description": "Campo de Futbol",
    "address": "Pablo Neruda 157, Surquillo 15038",
    "latitude": -12.1133,
    "longitude": -77.0077,
    "anticipation": 0
  },
  {
    "id": 20,
    "name": "La Once Complejo Deportivo",
    "description": "Campo de Futbol",
    "address": "Av Tomás Marsano 630, Surquillo 15048",
    "latitude": -12.1101,
    "longitude": -77.0149,
    "anticipation": 0
  },
  {
    "id": 21,
    "name": "El Templo del fútbol",
    "description": "Campo de Futbol",
    "address": "Magnolia S/N, Surquillo 15038",
    "latitude": -12.1218,
    "longitude": -77.0033,
    "anticipation": 0
  },
  {
    "id": 22,
    "name": "Cancha de fulbito",
    "description": "Campo de Futbol",
    "address": "La Calera de la Merced, Surquillo 15038",
    "latitude": -12.1159,
    "longitude": -77.0013,
    "anticipation": 0
  }
]
